City_ID,City,Lat,Lng,Max Temp,Humidity,Cloudiness,Wind Speed,Country,Date
0,gabane,-24.6667,25.7822,22.29,72,92,1.69,BW,1735604830
1,mayo-belwa,9.05,12.05,22.46,24,70,0.99,NG,1735604832
2,grytviken,-54.2811,-36.5092,5.85,79,54,3.07,GS,1735604833
3,ushuaia,-54.8,-68.3,8.81,100,100,1.54,AR,1735604588
4,hamilton,39.1834,-84.5333,8.9,78,0,3.09,US,1735604406
5,waitangi,-43.9535,-176.5597,16.57,97,100,4.47,NZ,1735604836
6,jamestown,42.097,-79.2353,2.79,96,40,3.58,US,1735604715
7,brookings,44.3114,-96.7984,1.14,97,100,3.6,US,1735604839
8,nantucket,41.2835,-70.0995,8.41,93,0,6.17,US,1735604840
9,charcas,23.1333,-101.1167,18.3,16,0,3.05,MX,1735604842
10,touros,-5.1989,-35.4608,26.74,79,5,5.84,BR,1735604843
11,lebu,-37.6167,-73.65,15.43,91,43,6.14,CL,1735604844
12,ust-nera,64.5667,143.2,-30.01,98,100,1.38,RU,1735604846
13,adamstown,-25.066,-130.1015,24.2,85,99,6.91,PN,1735604847
14,veinticinco de mayo,-35.4323,-60.1727,25.55,58,9,1.79,AR,1735604848
15,nuuk,64.1835,-51.7216,-8.4,61,0,1.66,GL,1735604693
16,bilibino,68.0546,166.4372,-25.37,76,89,3.14,RU,1735604850
17,al jawf,29.5,38.75,7.28,69,18,2.85,SA,1735604851
18,ridgecrest,35.6225,-117.6709,16.92,33,0,4.12,US,1735604852
19,remire-montjoly,4.9167,-52.2667,24.02,100,0,0.51,GF,1735604855
20,mahibadhoo,3.7833,72.9667,26.91,75,77,3.04,MV,1735604856
21,blackmans bay,-43.0167,147.3167,20.41,50,29,0.45,AU,1735604857
22,vila franca do campo,37.7167,-25.4333,17.23,84,100,7.32,PT,1735604858
23,ribeira grande,38.5167,-28.7,18.76,90,100,8.94,PT,1735604860
24,emerald,-23.5333,148.1667,26.86,66,8,3.53,AU,1735604861
25,margaret river,-33.95,115.0667,19.32,50,1,3.75,AU,1735604862
26,hawaiian paradise park,19.5933,-154.9731,27.16,70,0,3.6,US,1735604863
27,saipan,15.1355,145.701,30.39,79,40,8.75,MP,1735604826
28,kapuskasing,49.4169,-82.4331,-0.95,100,100,5.66,CA,1735604865
29,marrakesh,31.6315,-8.0083,12.97,82,40,2.57,MA,1735604867
30,ixtapa,20.7,-105.2,24.57,78,0,2.57,MX,1735604868
31,newman,37.3138,-121.0208,12.8,53,43,3.13,US,1735604869
32,hassi messaoud,31.6804,6.0729,10.5,72,18,6.55,DZ,1735604870
33,papatowai,-46.5619,169.4708,14.36,70,66,3.87,NZ,1735604871
34,oodweyne,9.4092,45.064,15.19,62,97,3.86,SO,1735604872
35,mount gambier,-37.8333,140.7667,22.75,46,16,1.51,AU,1735604874
36,lazaro cardenas,17.9583,-102.2,25.8,66,9,3.69,MX,1735604875
37,kario ghanwar,24.8082,68.6045,15.75,27,55,2.95,PK,1735604876
38,port-aux-francais,-49.35,70.2167,4.46,70,86,11.58,TF,1735604877
39,yongning,24.68,118.69,14.01,73,0,7.32,CN,1735604878
40,novyy urgal,51.0736,132.5642,-33.5,99,58,0.33,RU,1735604880
41,coyhaique,-45.5752,-72.0662,8.11,76,36,3.66,CL,1735604818
42,grand gaube,-20.0064,57.6608,25.77,81,40,0.45,MU,1735604882
43,bredasdorp,-34.5322,20.0403,18.67,67,30,6.41,ZA,1735604883
44,victoria de durango,24.0333,-104.6667,24.79,17,0,2.06,MX,1735604884
45,stanley,54.868,-1.6985,9.01,83,75,6.17,GB,1735604885
46,kailua-kona,19.6406,-155.9956,27.53,73,0,5.14,US,1735604887
47,bethel,41.3712,-73.414,9.46,65,6,2.24,US,1735604888
48,cidreira,-30.1811,-50.2056,22.26,83,43,6.94,BR,1735604889
49,longyearbyen,78.2186,15.6401,-15.09,66,0,5.66,SJ,1735604890
50,west island,-12.1568,96.8225,26.99,83,20,1.54,CC,1735604891
51,dongola,19.1667,30.4833,14.3,28,100,6.28,SD,1735604893
52,kayangel,8.0823,134.7173,27.68,79,100,4.48,PW,1735604894
53,ingeniero jacobacci,-41.3427,-69.5448,15.62,52,19,11.32,AR,1735604895
54,antonio enes,-16.2325,39.9086,25.68,87,58,3.5,MZ,1735604896
55,bathsheba,13.2167,-59.5167,24.34,73,20,4.63,BB,1735604897
56,krasnyy chikoy,50.3643,108.7512,-22.45,100,94,0.89,RU,1735604898
57,hailey,43.5196,-114.3153,-4.08,74,0,2.06,US,1735604899
58,jumla,29.2747,82.1838,-0.51,27,0,2.54,NP,1735604901
59,sambava,-14.2667,50.1667,23.91,93,100,2.21,MG,1735604660
60,magadan,59.5667,150.8,-19.24,84,98,2.61,RU,1735604903
61,yellowknife,62.456,-114.3525,-16.71,85,100,8.75,CA,1735604904
62,san patricio,28.017,-97.5169,24.97,40,1,3.73,US,1735604905
63,songling,31.1933,120.7176,4.72,57,0,2.99,CN,1735604906
64,la passe,45.5549,-0.8967,4.29,87,0,2.63,FR,1735604907
65,edinburgh of the seven seas,-37.0676,-12.3116,17.67,91,99,11.69,SH,1735604909
66,port mathurin,-19.6833,63.4167,24.91,76,35,4.59,MU,1735604910
67,raja,8.4596,25.678,20.61,22,2,2.25,SS,1735604911
68,dudinka,69.4058,86.1778,-19.8,96,91,7.16,RU,1735604912
69,kloulklubed,7.0419,134.2556,27.4,84,100,5.52,PW,1735604913
70,tulum,20.2167,-87.4667,23.88,85,65,1.64,MX,1735604914
71,san luis de la loma,17.2706,-100.8939,25.79,67,19,3.67,MX,1735604916
72,ola,59.5833,151.2833,-19.55,84,96,4.07,RU,1735604917
73,hit,33.6416,42.8251,11.14,53,6,2.98,IQ,1735604918
74,salaverry,-8.2333,-78.9667,18.21,86,77,3.39,PE,1735604919
75,olonkinbyen,70.9221,-8.7187,-6.13,71,100,12.94,SJ,1735604920
76,doka,13.5167,35.7667,21.76,56,1,4.27,SD,1735604921
77,ilulissat,69.2167,-51.1,-11.99,48,20,5.66,GL,1735604923
78,shache,38.4167,77.2406,-5.86,62,62,1.71,CN,1735604924
79,tefe,-3.3542,-64.7114,24.06,95,95,0.58,BR,1735604925
80,tirlyanskiy,54.2109,58.5806,-11.84,98,50,1.95,RU,1735604926
81,qaqortoq,60.7167,-46.0333,-14.94,66,8,3.32,GL,1735604927
82,albany,42.6001,-73.9662,8.23,69,68,0.45,US,1735604895
83,port alfred,-33.5906,26.891,23.43,91,97,4.47,ZA,1735604929
84,sungailiat,-1.85,106.1333,25.4,88,100,2.54,ID,1735604931
85,an muileann gcearr,53.5333,-7.35,10.1,69,100,8.18,IE,1735604932
86,isafjordur,66.0755,-23.124,-7.34,75,100,7.84,IS,1735604934
87,kenai,60.5544,-151.2583,-2.14,68,0,7.72,US,1735604936
88,tiksi,71.6872,128.8694,-35.45,98,95,1.31,RU,1735604937
89,kingston,17.997,-76.7936,27.53,65,20,3.6,JM,1735604938
90,hasaki,35.7333,140.8333,9.87,61,100,7.53,JP,1735604939
91,olinda,-8.0089,-34.8553,27.85,74,40,4.12,BR,1735604940
92,utrik,11.2278,169.8474,26.98,75,71,7.16,MH,1735604941
93,tsiombe,-25.3,45.4833,24.2,85,4,3.29,MG,1735604943
94,tolanaro,-25.0319,46.9987,26.04,83,20,4.12,MG,1735604944
95,anadyr,64.75,177.4833,-6.72,79,40,28.0,RU,1735604945
96,mantua,45.1667,10.7833,1.34,73,0,1.5,IT,1735604946
97,ancud,-41.8697,-73.8203,11.81,67,31,4.01,CL,1735604947
98,kodiak,57.79,-152.4072,3.73,93,100,13.38,US,1735604857
99,huarmey,-10.0681,-78.1522,21.77,79,98,3.95,PE,1735604949
100,nizhnyaya salda,58.0776,60.7202,-8.46,81,92,5.36,RU,1735604952
101,rovnoye,50.7765,46.0509,-3.55,91,71,5.18,RU,1735604953
102,dalandzadgad,43.5708,104.425,-9.74,49,1,0.8,MN,1735604954
103,cururupu,-1.8283,-44.8683,24.51,88,92,0.97,BR,1735604955
104,anchau,10.9597,8.3916,17.65,28,8,2.67,NG,1735604956
105,nova sintra,14.8667,-24.7167,25.35,77,81,4.71,CV,1735604958
106,wailua homesteads,22.0669,-159.378,26.44,78,40,6.17,US,1735604959
107,gorom-gorom,14.4439,-0.2361,22.88,13,0,3.59,BF,1735604960
108,novoishimskiy,53.1981,66.7694,-18.57,99,51,3.25,KZ,1735604961
109,linxia chengguanzhen,35.6003,103.2064,-10.3,72,1,1.28,CN,1735604962
110,afaahiti,-17.75,-149.2833,26.61,73,69,1.12,PF,1735604963
111,luderitz,-26.6481,15.1594,17.07,92,0,5.08,,1735604965
112,barra,-11.0894,-43.1417,24.58,73,89,1.31,BR,1735604966
113,beaufort,5.3473,115.7455,26.07,88,34,0.61,MY,1735604821
114,hermanus,-34.4187,19.2345,17.67,76,22,7.17,ZA,1735604968
115,chul'man,56.8479,124.9104,-22.18,99,100,1.29,RU,1735604969
116,mana,5.6592,-53.7767,25.39,86,78,3.09,GF,1735604970
117,praia da vitoria,38.7333,-27.0667,17.14,82,40,8.6,PT,1735604971
118,constantia,44.1833,28.65,1.5,83,36,2.99,RO,1735604973
119,adelanto,34.5828,-117.4092,16.57,43,80,1.72,US,1735604974
120,namibe,-15.1961,12.1522,22.94,73,72,1.78,AO,1735604975
121,st. john's,47.5649,-52.7093,1.1,94,100,1.54,CA,1735604866
122,mora,11.0461,14.1401,20.81,24,73,2.6,CM,1735604979
123,satwas,22.5333,76.6833,15.27,67,0,2.59,IN,1735604980
124,champerico,14.3,-91.9167,26.78,72,100,2.89,GT,1735604981
125,brisas de zicatela,15.8369,-97.0419,28.29,74,0,1.03,MX,1735604982
126,fort st. john,56.2499,-120.8529,-14.06,78,75,2.06,CA,1735604719
127,puerto natales,-51.7236,-72.4875,12.56,84,100,1.42,CL,1735604984
128,al bawiti,28.3492,28.8659,9.84,57,1,4.16,EG,1735604985
129,port elizabeth,-33.918,25.5701,22.16,92,0,8.23,ZA,1735604987
130,lorengau,-2.0226,147.2712,29.4,69,100,0.41,PG,1735604988
131,cole harbour,44.6724,-63.4751,7.66,97,100,7.2,CA,1735604989
132,ilhabela,-23.7781,-45.3581,23.43,90,57,3.19,BR,1735604771
133,portland,45.5234,-122.6762,8.67,89,77,1.79,US,1735604600
134,college,64.8569,-147.8028,-26.62,69,0,2.06,US,1735604992
135,bucerias,20.75,-105.3333,24.99,78,0,2.57,MX,1735604994
136,crane,31.3974,-102.3501,19.77,14,0,3.05,US,1735604995
137,atafu village,-8.5421,-172.5159,28.15,76,83,4.87,TK,1735604996
138,saint croix,17.7397,-64.7388,22.75,76,91,0.89,VI,1735604997
139,iscar,41.3434,-4.5246,1.92,72,0,0.87,ES,1735604998
140,seeb,23.6703,58.1891,19.05,72,0,1.54,OM,1735604999
141,al hudaydah,14.7978,42.9545,23.87,81,4,2.46,YE,1735605001
142,badger,64.8,-147.5333,-26.67,73,20,2.06,US,1735605002
143,petropavlovsk-kamchatsky,53.0452,158.6483,-6.67,45,40,1.0,RU,1735605003
144,new norfolk,-42.7826,147.0587,21.51,21,11,1.69,AU,1735605004
145,georgetown,5.4112,100.3354,26.96,73,20,3.09,MY,1735604737
146,klaksvik,62.2266,-6.589,-1.85,63,100,6.37,FO,1735605007
147,iqaluit,63.7506,-68.5145,-25.15,69,0,1.03,CA,1735605008
148,shantou,23.3681,116.7148,11.92,94,0,0.0,CN,1735605009
149,geraldton,-28.7667,114.6,27.23,57,0,0.51,AU,1735605010
150,vilyuchinsk,52.9306,158.4028,-5.85,78,97,5.43,RU,1735605011
151,okha,53.5739,142.9478,-23.5,98,59,3.88,RU,1735605014
152,bayanaul,50.7889,75.6956,-13.08,97,93,2.23,KZ,1735605015
153,basco,20.4487,121.9702,24.17,87,100,10.54,PH,1735605017
154,chonchi,-42.6128,-73.8092,7.66,85,5,1.45,CL,1735605019
155,hithadhoo,-0.6,73.0833,26.58,74,26,4.56,MV,1735605020
156,vilyuysk,63.7553,121.6247,-49.04,100,70,1.25,RU,1735605021
157,siwa oasis,29.2041,25.5195,10.86,64,100,3.65,EG,1735605022
158,bermejo,-32.8833,-68.8,27.12,42,0,1.53,AR,1735605023
159,tazacorte,28.629,-17.9293,17.86,66,0,4.92,ES,1735605024
160,dryden,49.7833,-92.7503,-4.84,100,100,3.6,CA,1735605026
161,prince rupert,54.3161,-130.3201,5.83,88,100,3.6,CA,1735605027
162,udachny,66.4167,112.4,-34.21,100,100,0.27,RU,1735605028
163,alo,6.5486,4.2686,24.94,90,44,1.65,NG,1735605030
164,coahuayana de hidalgo,18.7,-103.6583,21.68,87,96,0.75,MX,1735605031
165,pilibangan,29.45,74.0833,10.22,34,100,1.66,IN,1735605032
166,lospalos,-8.5186,127.0025,22.89,96,100,0.91,TL,1735605033
167,porto novo,6.4965,2.6036,27.9,83,15,2.28,BJ,1735605034
168,visby,57.6409,18.296,3.12,87,100,5.66,SE,1735605036
169,anna regina,7.2644,-58.5077,25.37,84,94,3.07,GY,1735605037
170,mount isa,-20.7333,139.5,35.87,14,0,6.17,AU,1735605038
171,kone,-21.0595,164.8658,31.71,42,17,4.26,NC,1735605039
172,galliano,29.4422,-90.2992,19.08,85,0,4.58,US,1735605040
173,waddan,29.1614,16.139,11.34,70,100,4.54,LY,1735605041
174,villa gesell,-37.2639,-56.973,18.31,79,43,9.52,AR,1735604922
175,bandon,51.7469,-8.7425,9.77,76,100,8.25,IE,1735605044
176,savoy,45.5,6.4167,-5.35,39,5,3.45,FR,1735605045
177,kapa'a,22.0752,-159.319,27.18,76,40,6.17,US,1735604986
178,haiku-pauwela,20.9219,-156.3051,27.34,65,20,9.77,US,1735605047
179,abepura,-2.6333,140.5833,28.45,84,20,1.03,ID,1735605048
180,thompson,55.7435,-97.8558,-3.91,93,100,1.54,CA,1735605049
181,buka,40.8108,69.1986,5.25,84,95,0.94,UZ,1735605050
182,el porvenir,13.7617,-87.3458,23.27,90,100,0.74,HN,1735605052
183,carnarvon,-24.8667,113.6333,25.3,79,100,8.03,AU,1735605053
184,yulinshi,38.2906,109.7494,-5.47,47,0,1.96,CN,1735605054
185,ad dilam,23.9915,47.1627,18.65,39,100,2.12,SA,1735605055
186,tralee,52.2704,-9.7026,11.0,77,100,7.51,IE,1735605056
187,veshenskaya,49.6303,41.7334,-1.18,92,9,5.43,RU,1735605058
188,ouargla,31.9493,5.325,9.34,84,11,5.89,DZ,1735605059
189,antsiranana,-12.2787,49.2917,24.49,88,100,1.45,MG,1735605060
190,kill devil hills,36.0307,-75.676,12.01,80,0,0.0,US,1735605061
191,vanino,49.0869,140.2543,-16.46,76,10,1.8,RU,1735605062
192,wamba,8.9333,8.6,23.33,22,49,2.12,NG,1735605063
193,sargatskoye,55.6101,73.4972,-18.36,100,98,3.35,RU,1735605065
194,kirakira,-10.4544,161.9205,29.97,73,81,2.8,SB,1735605066
195,avarua,-21.2078,-159.775,27.03,89,100,6.17,CK,1735605070
196,puerto ayora,-0.7393,-90.3518,23.64,95,17,2.23,EC,1735605072
197,karakoyunlu,39.8704,43.6301,-4.11,84,15,1.47,TR,1735605073
198,katsuren-haebaru,26.3369,127.8719,19.21,66,100,5.66,JP,1735605074
199,invercargill,-46.4,168.35,14.45,77,11,1.34,NZ,1735605075
200,polyarnyy,69.1989,33.4478,0.48,98,100,10.64,RU,1735605077
201,nizhniy kuranakh,58.8353,125.4869,-19.02,99,100,0.52,RU,1735605078
202,pong,19.1493,100.2752,19.11,74,0,0.44,TH,1735605079
203,lompoc,34.6391,-120.4579,17.23,70,0,6.69,US,1735605081
204,rodolfo sanchez taboada,31.7167,-116.5667,13.94,90,0,0.89,MX,1735605082
205,zalingei,12.9096,23.4741,16.6,19,23,1.43,SD,1735605083
206,labytnangi,66.6572,66.4183,-12.28,98,100,0.88,RU,1735605084
207,almodovar del campo,38.7094,-4.1791,3.08,82,0,0.99,ES,1735605085
208,colonia,50.9333,6.95,1.09,90,100,2.57,DE,1735605007
209,masvingo,-20.0637,30.8277,19.32,94,100,0.82,ZW,1735605088
210,eldorado,-23.7869,-54.2836,22.89,60,0,2.2,BR,1735605058
211,acarau,-2.8856,-40.12,26.85,80,48,7.01,BR,1735605092
212,huambo,-12.7761,15.7392,17.89,88,0,3.09,AO,1735605093
213,karlovo,42.6333,24.8,1.85,70,0,1.19,BG,1735605094
214,talnakh,69.4865,88.3972,-19.41,96,94,4.99,RU,1735605095
215,domoni,-12.2569,44.5319,26.01,85,25,1.86,KM,1735605096
216,punta arenas,-53.15,-70.9167,13.06,76,100,3.6,CL,1735605093
217,al muwayh,22.4333,41.7583,14.51,34,99,3.58,SA,1735605099
218,konarka,19.9,86.1167,19.61,73,0,3.34,IN,1735605100
219,raduzhny,62.0961,77.475,-11.63,93,100,5.46,RU,1735605101
220,saldanha,-33.0117,17.9442,16.03,81,0,1.97,ZA,1735605102
221,kabala,9.5833,-11.55,19.96,22,0,1.9,SL,1735605103
222,saguenay,48.4168,-71.0657,4.46,100,100,5.14,CA,1735604882
223,neyriz,29.1988,54.3278,9.59,87,100,2.36,IR,1735605105
224,villa bruzual,9.3328,-69.1208,27.76,48,52,2.52,VE,1735605107
225,sitka,57.0531,-135.33,3.94,60,20,3.09,US,1735605108
226,ha'il,27.5219,41.6907,6.01,42,0,0.0,SA,1735604886
227,hell-ville,-13.4,48.2667,26.5,75,100,2.87,MG,1735605110
228,kidal,18.4411,1.4078,20.1,13,0,4.01,ML,1735605111
229,uturoa,-16.7333,-151.4333,27.91,71,18,2.51,PF,1735605112
230,salalah,17.0151,54.0924,23.05,68,75,2.06,OM,1735605114
231,kristiansund,63.1115,7.732,-1.04,68,40,12.35,NO,1735605115
232,mount pearl,47.5166,-52.7813,0.64,95,100,1.54,CA,1735605116
233,obubra,6.0752,8.329,23.79,86,88,2.21,NG,1735605117
234,barra de santo antonio,-9.4047,-35.5072,25.39,78,33,4.34,BR,1735605118
235,isangel,-19.55,169.2667,29.06,65,100,3.09,VU,1735605119
236,as sulayyil,20.4607,45.5779,16.77,36,100,1.97,SA,1735605121
237,weno,7.4515,151.8468,29.97,79,40,5.14,FM,1735605122
238,queenstown,-31.8976,26.8753,22.14,60,100,1.8,ZA,1735604917
239,okhotsk,59.3833,143.3,-31.57,76,0,5.42,RU,1735605124
240,zahedan,29.4963,60.8629,12.95,50,0,5.14,IR,1735605093
241,kudahuvadhoo,2.6708,72.8944,27.02,73,19,3.28,MV,1735605126
242,bratsk,56.1325,101.6142,-11.73,88,100,4.42,RU,1735605127
243,smithers,54.7804,-127.1743,-1.82,93,100,1.03,CA,1735605129
244,ta`u,-14.2336,-169.5144,28.63,69,100,2.44,AS,1735605130
245,north platte,41.1239,-100.7654,3.94,74,75,10.28,US,1735605131
246,taltal,-25.4,-70.4833,19.57,78,0,2.05,CL,1735605020
247,lihue,21.9789,-159.3672,26.77,70,40,6.17,US,1735605135
248,yaren,-0.5472,166.916,27.7,72,96,6.26,NR,1735605136
249,puerto aysen,-45.4,-72.7,7.79,98,100,2.47,CL,1735605072
250,novodvinsk,64.4165,40.8122,-4.14,87,100,4.42,RU,1735605138
251,fuyang,32.9,115.8167,4.04,34,62,2.7,CN,1735605139
252,custodia,-8.0875,-37.6431,26.63,50,100,5.65,BR,1735605140
253,aasiaat,68.7098,-52.8699,-22.64,85,5,2.37,GL,1735605142
254,koson,39.0375,65.585,2.8,84,79,2.89,UZ,1735605143
255,acapulco de juarez,16.8634,-99.8901,27.9,74,0,3.6,MX,1735605144
256,vorgashor,67.5833,63.95,-7.38,89,100,5.26,RU,1735605145
257,saint-philippe,-21.3585,55.7679,25.68,82,48,2.87,RE,1735605146
258,playa vicente,17.8333,-95.8167,22.16,84,83,2.36,MX,1735605148
259,warmbaths,-24.8833,28.2833,21.26,80,100,1.21,ZA,1735605150
260,dakar,14.6937,-17.4441,25.07,61,0,6.17,SN,1735605151
261,alice springs,-23.7,133.8833,33.75,11,4,5.66,AU,1735605152
262,east london,-33.0153,27.9116,23.53,87,100,9.39,ZA,1735605154
263,tuxpan,19.55,-103.4,21.97,51,86,1.94,MX,1735605155
264,pontes e lacerda,-15.2261,-59.3353,26.86,59,100,1.4,BR,1735605156
265,bikenibeu village,1.3673,173.1241,29.98,70,20,6.17,KI,1735605157
266,shahabad,27.65,79.95,9.1,67,0,2.3,IN,1735605158
267,plettenberg bay,-34.0527,23.3716,20.01,82,66,1.88,ZA,1735605159
268,solnechnyy,50.7214,136.6319,-19.71,85,15,0.9,RU,1735605160
269,kununurra,-15.7667,128.7333,30.99,70,53,1.54,AU,1735605162
270,lamar,33.6668,-95.5836,17.95,51,0,3.6,US,1735605163
271,hilo,19.7297,-155.09,27.28,72,0,3.6,US,1735605164
272,villas,26.5504,-81.8687,22.25,92,0,2.57,US,1735605165
273,la sarre,48.8002,-79.1996,0.04,97,100,5.33,CA,1735605166
274,khark,29.2614,50.3306,18.38,73,100,3.1,IR,1735605167
275,jinghong,21.991,100.7341,15.09,77,0,0.45,CN,1735605169
276,rongelap,11.1635,166.8941,27.32,74,7,7.8,MH,1735605170
277,mirnyy,62.5353,113.9611,-26.19,99,100,0.06,RU,1735605171
278,klyuchi,52.2667,79.1667,-19.86,100,91,2.32,RU,1735605172
279,al ghayzah,16.2079,52.176,20.76,73,100,2.83,YE,1735605004
280,salekhard,66.53,66.6019,-11.51,99,100,2.3,RU,1735605175
281,la ronge,55.1001,-105.2842,-10.86,79,100,8.23,CA,1735605176
282,siran,40.1894,39.1267,-7.32,92,86,1.42,TR,1735605177
283,nar'yan-mar,67.6713,53.087,-2.77,89,100,10.03,RU,1735605178
284,comandante fontana,-25.3345,-59.6821,24.31,34,1,1.9,AR,1735605179
285,shipunovo,52.1582,82.2173,-20.11,100,100,3.0,RU,1735605180
286,mossel bay,-34.1831,22.146,18.96,80,32,3.67,ZA,1735605181
287,san rafael,-34.6177,-68.3301,20.22,72,45,6.91,AR,1735605183
288,vershino-darasunskiy,52.35,115.5167,-23.24,99,29,1.62,RU,1735605136
289,opuwo,-18.0607,13.84,21.34,29,47,1.79,,1735605185
290,fort mcmurray,56.7268,-111.381,-11.23,79,100,3.6,CA,1735605019
291,betioky,-23.7167,44.3833,23.54,86,0,1.94,MG,1735605187
292,usogorsk,63.4106,48.6872,-3.7,86,100,5.86,RU,1735605188
293,amga,60.8953,131.9608,-50.24,100,85,0.38,RU,1735605190
294,port isabel,26.0734,-97.2086,23.35,75,0,4.12,US,1735605191
295,shubarshi,48.5872,57.1869,-8.67,97,83,1.78,KZ,1735605192
296,nemuro,43.3236,145.575,-1.42,92,100,9.84,JP,1735605193
297,trincomalee,8.5711,81.2335,26.23,85,100,8.23,LK,1735605194
298,pahrump,36.2083,-115.9839,16.81,25,7,0.89,US,1735604920
299,ciudad madero,22.2667,-97.8333,23.92,80,0,4.53,MX,1735605197
300,gaiman,-43.2897,-65.4929,24.11,36,96,16.91,AR,1735605198
301,egilsstadir,65.2653,-14.3948,-16.05,78,0,2.06,IS,1735605199
302,kerema,-7.9631,145.7785,28.35,76,98,3.24,PG,1735605200
303,port hedland,-20.3167,118.5667,35.03,52,31,4.12,AU,1735605201
304,haraiya,26.8,82.4667,10.2,86,0,2.5,IN,1735605204
305,akobo,7.4344,3.9497,22.47,80,2,0.72,NG,1735605205
306,iskilip,40.7353,34.4739,0.19,85,7,2.66,TR,1735605206
307,kokshetau,53.2775,69.3883,-18.96,99,31,2.67,KZ,1735605207
308,amahai,-3.3333,128.9167,27.14,82,100,1.92,ID,1735605208
309,kurchatov,51.6601,35.6521,0.74,93,100,4.69,RU,1735605209
310,qarazhal,48.0078,70.7903,-10.84,98,99,1.98,KZ,1735605211
311,urangan,-25.3,152.9,23.89,82,4,3.1,AU,1735605212
312,talcahuano,-36.7167,-73.1167,17.82,77,0,7.72,CL,1735605213
313,port lincoln,-34.7333,135.8667,21.74,63,0,3.56,AU,1735605215
314,auki,-8.7676,160.7034,29.71,68,40,2.19,SB,1735605216
315,quellon,-43.1167,-73.6167,10.1,72,9,3.41,CL,1735605218
316,yeed,4.55,43.0333,23.7,47,18,4.95,SO,1735605219
317,kharp,66.8014,65.8081,-11.64,97,100,1.4,RU,1735605220
318,fortaleza,-3.7227,-38.5247,28.45,78,0,3.6,BR,1735605186
319,lerwick,60.1545,-1.1494,1.53,54,100,4.76,GB,1735605222
320,beya,53.0533,90.9139,-12.58,88,99,2.54,RU,1735605223
321,al lagowa,11.4,29.1333,19.54,17,6,6.07,SD,1735605225
322,beledweyne,4.7358,45.2036,21.86,77,12,6.09,SO,1735605226
323,sansepolcro,43.5747,12.143,5.06,75,0,0.2,IT,1735605227
324,gokwe,-18.2048,28.9349,18.36,93,100,1.58,ZW,1735605228
325,maxixe,-23.8597,35.3472,25.27,86,6,2.07,MZ,1735605229
326,ugoofaaru,5.6667,73.0,27.66,72,100,2.94,MV,1735605230
327,susuman,62.7833,148.1667,-27.54,98,100,1.14,RU,1735605231
328,bechar,31.6167,-2.2167,6.03,52,1,2.88,DZ,1735605233
329,at-bashi,41.1702,75.8106,-14.53,69,19,1.41,KG,1735605234
330,ulladulla,-35.35,150.4667,22.38,76,87,4.78,AU,1735605235
331,navolato,24.7672,-107.6944,27.1,59,93,3.33,MX,1735605236
332,safaga,26.7292,33.9365,15.64,46,0,6.38,EG,1735605237
333,fale old settlement,-9.3852,-171.2468,28.59,74,48,5.02,TK,1735605239
334,malabar,-33.9667,151.25,27.06,66,75,3.6,AU,1735605240
335,kruisfontein,-34.0033,24.7314,18.55,84,1,5.32,ZA,1735605122
336,gadzhiyevo,69.2551,33.3362,1.0,97,100,11.57,RU,1735605242
337,keflavik,64.0049,-22.5624,-3.76,68,75,7.2,IS,1735605243
338,whitehorse,60.7161,-135.0538,-10.57,85,75,1.54,CA,1735605244
339,yigo village,13.5361,144.8886,25.97,90,100,10.29,GU,1735605246
340,kayyerkan,69.3786,87.7439,-21.81,96,84,3.83,RU,1735605247
341,flying fish cove,-10.4217,105.6791,24.82,94,100,5.14,CX,1735605248
342,bintulu,3.1667,113.0333,27.23,88,20,1.03,MY,1735605249
343,nampula,-15.1165,39.2666,22.97,88,20,2.06,MZ,1735605250
344,hotan,37.0997,79.9269,-5.85,54,80,2.48,CN,1735605251
345,betare oya,5.6,14.0833,21.2,29,71,2.36,CM,1735605254
346,abeche,13.8292,20.8324,19.1,18,30,7.05,TD,1735605255
347,papao,-17.75,-149.55,29.82,71,100,1.49,PF,1735605256
348,neftekamsk,56.092,54.2703,-5.85,91,100,8.06,RU,1735605258
349,margate,51.3813,1.3862,7.61,86,100,6.13,GB,1735605051
350,palmer,42.1584,-72.3287,7.73,70,40,3.6,US,1735605260
351,yuzhno-kurilsk,44.0306,145.8556,-2.6,75,100,4.6,RU,1735605261
352,pacific grove,36.6177,-121.9166,14.06,84,0,5.36,US,1735605262
353,ambon,-3.6954,128.1814,29.08,79,40,1.03,ID,1735605264
354,al-hamdaniya,36.2715,43.3737,8.89,62,100,1.8,IQ,1735605265
355,moranbah,-22.0016,148.0466,29.82,48,0,1.96,AU,1735605266
356,richlands,37.0932,-81.7937,3.28,95,30,1.51,US,1735605267
357,saudarkrokur,65.7461,-19.6394,-17.27,87,5,2.99,IS,1735605268
358,minas de marcona,-15.2119,-75.1103,16.87,78,100,4.25,PE,1735605270
359,general jose de san martin,-26.5374,-59.3416,23.81,54,0,2.65,AR,1735605271
360,jining,35.405,116.5814,2.01,33,0,2.0,CN,1735605068
361,gdov,58.7406,27.8122,0.31,80,63,5.51,RU,1735605273
362,taoudenni,22.6783,-3.9836,12.78,34,0,4.88,ML,1735605274
363,malindi,-3.2175,40.1191,26.12,82,77,4.87,KE,1735605194
364,port-gentil,-0.7193,8.7815,26.39,83,100,3.17,GA,1735605276
365,heroica guaymas,27.9333,-110.9,22.65,43,0,5.66,MX,1735605279
366,ulaangom,49.9811,92.0667,-25.47,86,63,0.76,MN,1735605280
367,al bayda',32.7627,21.7551,6.23,83,1,2.24,LY,1735605153
368,nago,26.5881,127.9761,18.69,62,97,6.56,JP,1735605282
369,sangin,32.0728,64.8359,9.67,21,94,1.85,AF,1735605284
370,tshabong,-26.05,22.45,23.84,69,100,1.77,BW,1735605285
371,hawkinsville,32.2838,-83.4721,14.19,68,0,2.77,US,1735605286
372,mata-utu,-13.2816,-176.1745,28.77,75,100,5.52,WF,1735605287
373,ornskoldsvik,63.2909,18.7153,-4.47,74,0,6.17,SE,1735605288
374,loikaw,19.6742,97.2094,15.63,69,6,1.31,MM,1735605289
375,antalaha,-14.9003,50.2788,23.71,92,100,1.59,MG,1735605291
376,general mosconi,-23.1851,-62.303,28.34,35,71,3.76,AR,1735605292
377,santa ana,33.7456,-117.8678,17.69,75,75,3.09,US,1735605293
378,dhaulpur,26.7,77.9,8.45,85,0,0.53,IN,1735605294
379,delacombe,-37.5891,143.8147,23.74,44,7,0.89,AU,1735605295
380,uvalde,29.3669,-99.767,27.55,9,0,2.57,US,1735605296
381,sandnessjoen,66.0217,12.6316,-1.05,58,100,11.82,NO,1735605219
382,cannonvale,-20.2833,148.7,28.66,67,18,1.79,AU,1735605299
383,imbituba,-28.24,-48.6703,20.87,88,100,2.94,BR,1735605024
384,faya-largeau,17.9257,19.1043,16.89,22,3,10.78,TD,1735605301
385,monroeville,40.4212,-79.7881,6.69,69,0,2.84,US,1735605302
386,ouro sogui,15.6,-13.3167,26.01,34,0,3.09,SN,1735605304
387,kismayo,-0.3582,42.5454,25.54,81,0,7.72,SO,1735605306
388,porto velho,-8.7619,-63.9039,26.03,89,0,1.54,BR,1735605131
389,mournies,35.4764,24.0092,11.22,87,40,4.12,GR,1735605308
390,rionero in vulture,40.9257,15.67,4.39,70,0,2.26,IT,1735605309
391,den burg,53.0542,4.7972,8.98,81,100,8.75,NL,1735605016
392,mirpur sakro,24.5474,67.6277,16.06,26,98,2.71,PK,1735605311
393,porbandar,21.6422,69.6093,18.81,46,0,3.72,IN,1735605313
394,gaspe,48.8334,-64.4819,4.12,93,100,7.72,CA,1735605314
395,tailai,46.3833,123.4,-14.24,81,23,2.32,CN,1735605315
396,laojunmiao,39.8333,97.7333,-7.28,32,11,3.2,CN,1735605316
397,enriquillo,17.9,-71.2333,21.91,82,99,3.6,DO,1735605317
398,sinabang,2.4803,96.3801,26.31,82,98,0.91,ID,1735605318
399,luau,-10.7073,22.2247,18.4,97,100,1.43,AO,1735605319
400,kutum,14.2,24.6667,11.77,31,4,3.87,SD,1735605321
401,greymouth,-42.4667,171.2,20.98,48,87,1.91,NZ,1735605166
402,bandar lampung,-5.4254,105.258,24.72,82,100,0.84,ID,1735605323
403,la'ie,21.6477,-157.9253,28.3,76,8,1.79,US,1735605324
404,kerikeri,-35.2268,173.9474,21.62,73,0,6.26,NZ,1735605325
405,sao vicente,-23.9631,-46.3919,23.88,26,91,3.48,BR,1735605188
406,motygino,58.1831,94.7592,-10.38,93,100,3.78,RU,1735605328
407,saint-pierre,-21.3393,55.4781,24.82,69,0,2.57,RE,1735605329
408,mar del plata,-38.0023,-57.5575,20.05,88,0,7.2,AR,1735604556
409,pembroke,45.8168,-77.1162,2.32,90,100,5.34,CA,1735605101
410,panama city beach,30.1766,-85.8055,16.67,91,0,2.06,US,1735605199
411,boende,-0.2167,20.8667,23.6,69,99,1.18,CD,1735605334
412,zouerate,22.7187,-12.4521,12.37,28,0,4.53,MR,1735605335
413,ryotsu-minato,38.0833,138.4333,8.17,76,100,11.0,JP,1735605336
414,naantali,60.4674,22.0243,-3.77,86,0,3.6,FI,1735605337
415,selfoss,63.9331,-20.9971,-8.17,83,100,6.54,IS,1735605338
416,cockburn town,21.4612,-71.1419,24.71,72,99,6.41,TC,1735605339
417,havre,49.5833,0.3333,2.87,93,100,4.63,FR,1735605341
418,codrington,-38.2667,141.9667,21.28,55,6,4.69,AU,1735605342
419,takai,11.5833,9.1167,18.66,28,74,3.57,NG,1735605343
420,timimoun,29.2639,0.231,9.64,61,0,7.14,DZ,1735605344
421,turkestan,43.3333,68.25,1.98,95,99,3.07,KZ,1735605345
422,monrovia,6.3005,-10.7969,26.33,82,4,1.05,LR,1735605346
423,thunder bay,48.4001,-89.3168,-1.01,86,75,4.63,CA,1735605208
424,nogliki,51.8333,143.1667,-22.17,98,93,1.12,RU,1735605349
425,mjolby,58.326,15.1237,-1.17,78,100,3.96,SE,1735605350
426,seguela,7.9611,-6.6731,22.11,23,2,1.8,CI,1735605351
427,sainte-rose,16.3324,-61.6979,21.02,78,94,1.54,GP,1735605352
428,itaituba,-4.2761,-55.9836,23.71,98,100,0.85,BR,1735605353
429,katsuura,35.1333,140.3,13.65,59,100,14.69,JP,1735605355
430,las lomitas,-24.7096,-60.593,26.22,38,11,2.65,AR,1735605356
431,dampit,-8.2116,112.7493,25.24,84,99,0.68,ID,1735605357
432,banda aceh,5.5577,95.3222,26.01,82,98,2.24,ID,1735605358
433,nizhneudinsk,54.9076,99.0276,-8.61,72,100,5.07,RU,1735605359
434,kirensk,57.7853,108.1119,-10.91,95,100,2.6,RU,1735605193
435,dolbeau-mistassini,48.8763,-72.212,3.26,100,100,2.24,CA,1735605361
436,cabo san lucas,22.8909,-109.9124,25.17,43,0,5.14,MX,1735605067
437,tazovsky,67.4667,78.7,-10.37,93,100,7.32,RU,1735605135
438,westport,41.1415,-73.3579,10.18,65,75,5.14,US,1735605365
439,vadso,70.0744,29.7487,0.09,86,40,3.6,NO,1735605366
440,yuzhno-sukhokumsk,44.6581,45.6436,0.21,81,11,3.35,RU,1735605367
441,wanning,18.8003,110.3967,19.47,76,100,5.18,CN,1735605369
442,coronel suarez,-37.4547,-61.9334,26.08,33,100,5.94,AR,1735605370
443,elizabethtown,37.694,-85.8591,9.51,87,0,3.09,US,1735605359
444,bom jesus,-9.0744,-44.3586,23.28,90,99,0.88,BR,1735605372
445,lubang,13.8584,120.124,27.01,82,100,9.68,PH,1735605373
446,rio grande,-32.035,-52.0986,20.87,82,100,6.63,BR,1735605374
447,magugu,-4.0167,35.7667,19.16,81,9,1.28,TZ,1735605375
448,muromtsevo,56.3724,75.2418,-15.65,97,68,2.93,RU,1735605377
449,pahlgam,34.0333,75.3333,-5.79,47,41,4.32,IN,1735605378
450,riachao das neves,-11.7461,-44.91,23.64,70,100,0.56,BR,1735605379
451,oued zem,32.8627,-6.5736,8.42,80,41,3.67,MA,1735605380
452,nova vicosa,-17.8919,-39.3719,24.55,91,100,3.22,BR,1735605381
453,harstad,68.799,16.5293,-0.47,70,100,2.98,NO,1735605382
454,pisco,-13.7,-76.2167,22.03,78,0,1.03,PE,1735605384
455,lata,40.1629,-8.3327,4.07,87,4,1.53,PT,1735605385
456,ayr,55.4627,-4.6339,10.28,84,100,8.23,GB,1735605386
457,san jose del guaviare,2.5729,-72.6459,23.41,95,62,1.24,CO,1735605387
458,campbellton,48.0075,-66.6727,2.25,96,100,3.79,CA,1735605176
459,qarauyl,48.9451,79.255,-6.98,97,100,0.64,KZ,1735605389
460,mo i rana,66.3128,14.1428,-2.74,86,75,5.81,NO,1735605390
461,iskateley,67.6803,53.1512,-2.71,88,100,9.99,RU,1735605392
462,kiunga,-6.1219,141.2906,26.1,82,100,0.58,PG,1735605393
463,tamanrasset,22.785,5.5228,11.95,24,0,3.6,DZ,1735605394
464,vorkuta,67.5,64.0,-7.32,89,100,4.97,RU,1735605395
465,morehead city,34.7229,-76.726,13.33,90,0,1.54,US,1735605296
466,yelizovo,53.1873,158.3805,-5.92,45,40,1.0,RU,1735605400
467,marsh harbour,26.5412,-77.0636,23.6,75,0,3.7,BS,1735605401
468,sisimiut,66.9395,-53.6735,-13.03,69,0,3.84,GL,1735605402
469,vel'sk,61.0701,42.0983,-2.19,85,99,6.24,RU,1735605403
470,tamboril,19.4854,-70.611,21.43,91,20,0.45,DO,1735605159
471,holualoa,19.6228,-155.9522,26.02,74,0,5.14,US,1735605378
472,razole,16.4833,81.8333,19.82,99,26,1.53,IN,1735605407
473,mhamid,29.82,-5.72,8.64,50,1,2.64,MA,1735605409
474,kalabo,-14.97,22.6814,20.86,71,100,1.16,ZM,1735605410
475,tanout,14.9709,8.8879,17.96,17,2,5.92,NE,1735605411
476,port augusta,-32.5,137.7667,31.37,22,0,2.18,AU,1735605412
477,awjilah,29.1081,21.2869,10.57,61,100,2.08,LY,1735605413
478,nadi,-17.8,177.4167,29.0,61,20,4.63,FJ,1735605415
479,necochea,-38.5473,-58.7368,22.65,50,100,7.72,AR,1735605330
480,neiafu,-18.65,-173.9833,27.38,83,75,4.12,TO,1735605417
481,west melbourne,28.0717,-80.6534,20.01,94,0,3.6,US,1735605419
482,skowhegan,44.7651,-69.7192,9.28,99,100,3.23,US,1735605421
483,kilindoni,-7.9139,39.6668,27.49,81,100,6.16,TZ,1735605423
484,el calafate,-50.3408,-72.2768,11.89,86,100,5.97,AR,1735605194
485,tobelo,1.7284,128.0095,26.93,81,100,1.3,ID,1735605327
486,greeneville,36.1632,-82.831,10.08,83,0,1.54,US,1735605053
487,colonia menno,-22.3667,-59.8167,28.13,35,1,2.03,PY,1735605427
488,aketi,2.7388,23.7833,20.64,45,40,1.15,CD,1735605428
489,nuku'alofa,-21.1333,-175.2,28.19,69,20,3.09,TO,1735605431
490,moab,38.5733,-109.5498,5.03,49,0,1.69,US,1735605432
491,happy valley-goose bay,53.3168,-60.3315,-0.83,100,100,3.6,CA,1735605433
492,aljezur,37.3191,-8.8033,10.36,74,6,1.97,PT,1735605434
493,farafenni,13.5667,-15.6,25.73,24,0,3.64,GM,1735605436
494,camiri,-20.05,-63.5167,23.44,48,100,1.7,BO,1735605437
495,olavarria,-36.8927,-60.3225,22.15,39,41,3.74,AR,1735605438
496,coari,-4.085,-63.1414,24.31,88,99,1.18,BR,1735605439
497,zhezqazghan,47.7833,67.7667,-14.06,97,32,1.94,KZ,1735605440
498,kiruna,67.8557,20.2251,-5.49,68,99,5.66,SE,1735605441
499,svetlyy,54.675,20.1347,5.95,86,100,9.93,RU,1735605442
500,tura,25.5198,90.2201,13.0,79,0,1.8,IN,1735605444
501,aykhal,66.0,111.5,-27.03,100,98,1.8,RU,1735605194
502,america dourada,-11.4553,-41.4361,22.16,81,100,1.82,BR,1735605446
503,san juan del cesar,10.7711,-73.0031,24.11,77,91,2.36,CO,1735605447
504,vallo della lucania,40.2297,15.2658,8.3,82,0,1.28,IT,1735605448
505,chernomorskoye,45.5039,32.6997,6.49,80,11,6.15,UA,1735605449
506,longmen,24.9597,118.0889,15.86,47,0,1.81,CN,1735605451
507,doctor arroyo,23.6667,-100.1833,17.67,20,0,3.17,MX,1735605452
508,pointe-noire,-4.7761,11.8635,24.04,94,20,1.54,CG,1735605453
509,azna,33.6095,48.9307,2.11,76,1,0.44,IR,1735605454
510,strezhevoy,60.7333,77.5889,-12.14,93,87,4.69,RU,1735605455
511,hadibu,12.65,54.0333,22.3,75,74,3.1,YE,1735605456
512,zabol,32.25,67.25,3.42,27,100,0.7,AF,1735605458
513,houma,29.5958,-90.7195,20.0,70,0,0.89,US,1735605459
514,malvan,16.0667,73.4667,23.04,53,0,3.67,IN,1735605460
515,robertsport,6.7533,-11.3686,26.68,79,0,0.62,LR,1735605461
516,kodinsk,58.6881,99.1844,-10.42,94,100,3.61,RU,1735605462
517,tangalle,6.024,80.7911,24.27,92,100,2.63,LK,1735605463
518,rucar,45.4,25.1667,-0.91,77,0,2.35,RO,1735605465
519,kintampo,8.0563,-1.7306,28.18,19,85,2.05,GH,1735605466
520,altai,46.3722,96.2583,-14.67,60,14,1.41,MN,1735605468
521,abashiri,44.0213,144.2697,-9.84,94,75,1.54,JP,1735605470
522,enewetak,11.3474,162.3373,27.28,77,88,7.4,MH,1735605471
523,chota,-6.55,-78.65,12.99,96,97,1.37,PE,1735605472
524,mariinsk,56.2139,87.7472,-12.1,91,100,4.24,RU,1735605473
525,san fernando,15.0286,120.6898,26.85,73,28,3.72,PH,1735605474
526,bodaybo,57.8506,114.1933,-14.75,95,100,1.5,RU,1735605475
527,thanh hoa,19.8,105.7667,17.7,71,100,2.54,VN,1735605476
528,revda,56.801,59.9303,-8.85,88,20,5.79,RU,1735605478
529,pauini,-7.7136,-66.9764,23.08,97,100,1.23,BR,1735605480
530,puerto gaitan,4.3133,-72.0816,28.52,52,8,1.51,CO,1735605481
531,valverde del camino,37.5751,-6.7543,6.91,73,4,2.05,ES,1735605482
532,baracoa,20.3467,-74.4958,23.2,83,79,2.98,CU,1735605483
533,marang,5.2056,103.2059,24.96,83,99,1.33,MY,1735605485
534,guayaramerin,-10.8368,-65.3614,24.17,90,63,1.25,BO,1735605486
535,thief river falls,48.1191,-96.1812,-6.04,93,100,5.66,US,1735605487
536,shimoda,34.6667,138.95,12.26,60,100,10.34,JP,1735605488
537,sofifi,0.7349,127.576,27.67,83,100,2.58,ID,1735605489
538,temiskaming shores,47.4938,-79.7153,0.89,87,100,6.1,CA,1735605490
539,semirara,12.0697,121.3986,27.09,85,15,10.21,PH,1735605492
540,manokwari,-0.8667,134.0833,27.85,73,88,0.56,ID,1735605493
541,kongolo,-5.3833,27.0,20.48,90,100,0.19,CD,1735605494
542,aswan,24.0934,32.907,10.61,57,0,1.54,EG,1735605495
543,zhanibek,49.4167,46.85,-3.83,94,56,5.21,KZ,1735605496
544,baise city,23.8997,106.6133,14.37,59,100,0.3,CN,1735605497
545,alofi,-19.0595,-169.9187,27.94,69,100,1.54,NU,1735605498
546,svay rieng,11.0879,105.7993,24.17,69,60,3.83,KH,1735605500
547,karaton,-6.3424,106.1045,24.88,83,100,1.99,ID,1735605247
548,sao joao de meriti,-22.8039,-43.3722,24.94,88,40,3.6,BR,1735605502
549,yatou,37.15,122.3833,2.3,50,4,2.23,CN,1735605503
550,maua,-23.6678,-46.4614,21.67,88,100,1.95,BR,1735605504
551,alesund,62.4723,6.1549,-0.14,65,75,9.26,NO,1735605505
552,bamboo flat,11.7,92.7167,27.05,83,40,1.03,IN,1735605506
553,hovd,48.0056,91.6419,-16.96,81,100,0.83,MN,1735605508
554,chacabuco,-34.6417,-60.4739,23.75,34,39,4.01,AR,1735605359
555,zywiec,49.6853,19.1924,4.49,100,9,2.24,PL,1735605510
556,gaigeturi,33.4644,126.3183,8.03,53,75,5.66,KR,1735605511
557,soio,-6.1349,12.3689,25.79,90,94,2.7,AO,1735605512
558,grantsville,40.5999,-112.4644,1.47,67,0,1.54,US,1735605513
559,pacocha,-17.5833,-71.3333,19.13,89,100,1.57,PE,1735605515
560,mersing,2.4312,103.8405,25.95,89,20,3.6,MY,1735605516
561,montmagny,48.9734,2.3469,2.02,93,100,4.12,FR,1735605517
562,ibbenburen,52.2667,7.7333,3.85,93,100,5.14,DE,1735605518
563,singkil,-7.9855,111.4161,26.76,78,93,2.09,ID,1735605519
